lat,lng,city,startTime,panoId
61.50249283960385,23.770577918883838,Tampere,2025-12-15T18:21:13.5220000Z,793636334468416C33726A3173784537326652494167
51.50108600977188,-0.12398158263580283,London,2025-12-15T18:21:40.0800000Z,455778526B7933586B59333254333548427442726151
-26.204952218404284,28.04696742798592,Johannesburg,2025-12-15T18:22:22.6620000Z,4D7578386C314B3661522D35584C5F37664936436D67
37.57930407611275,126.9770907960156,Seoul,2025-12-15T18:23:08.9220000Z,72705574352D61414163307766664145347874466767
27.49250977423622,89.36212158977534,Paro,2025-12-15T18:23:23.9430000Z,43416F5346304E4A534530776232644C52556C445157644A52465531575459795A314646
18.44978752341231,-69.97490292635085,Santo Domingo,2025-12-15T18:19:11.6020000Z,43416F534C4546474D5646706345307A596B6B3265474E3356325A7862314E455458465A4E47527157586452536C39326132526B5A545269583067794E455242
6.699421205494319,-1.6101116412221763,Kumasi,2025-12-15T18:19:51.5050000Z,466F454B725531753762494E545A324B39774E715F77
-8.671037451500181,115.23394441902563,Denpasar,2025-12-15T18:20:12.8720000Z,6165674F6F506C5F58766B386E714F506A5866506C67
47.5549719,10.7495568,Schwangau,2025-12-15T18:20:22.2640000Z,43416F534C4546474D564670634535564E6D746853464A5A567A6475546B68425A7A41325654523263457446566A56455648527252465A33516B78715A6E4E78
45.049579521287725,3.8815324237481743,Aiguilhe,2025-12-15T18:20:47.3870000Z,446E6A6D6459645A54474B527159617077596B567677
43.50839659349261,16.44019172850946,Split,2025-12-15T18:15:00.2430000Z,4F7A527A5A4768714C567577464C4142456251746D51
41.902203199999995,12.4533898,Città del Vaticano,2025-12-15T18:15:49.1060000Z,43416F534C4546474D5646706345355A61334A505A6E5A43566B39434F5331484C557045637A4669536C4A575231565554546C73526A5A5A5246567357444654
51.49971021285653,-0.12911259625420185,London,2025-12-15T18:16:24.3090000Z,78776755734D3858626868707A4930424F4438794A77
28.656031920229456,77.23707740405098,New Delhi,2025-12-15T18:17:22.1080000Z,7A314958564E356A6D4241414141514A4B66584E4977
37.878885663261805,-4.779407680954563,Córdoba,2025-12-15T18:17:46.7700000Z,4A6F724E7451396A764969324770514135636C766A51
44.953067779541016,-103.36555480957031,Newell,2025-12-15T18:14:05.9650000Z,34516F6A5833546F5579383671504475476F43456541
42.50395965576172,-90.70816802978516,Dubuque,2025-12-15T18:13:58.2740000Z,4A77747A304A4E705F6C4C7A584F4567306C66377551
37.62236404418945,-77.34037780761719,Mechanicsville,2025-12-15T18:13:48.4400000Z,504A787530756F43725878506E6C5A38357371736141
39.72501754760742,-82.62796783447266,Lancaster,2025-12-15T18:13:34.6270000Z,315754447A78586764726A6A4F334C664D6A6E583751
31.70430564880371,-89.12625885009766,Laurel,2025-12-15T18:13:24.3290000Z,6E6E55533457686E486F6F662D704C58645F77737577
48.22615432739258,-96.10796356201172,Thief River Falls,2025-12-15T18:13:17.0290000Z,3461535A53775A744A753446712D79316133494B6777
45.80168914794922,-106.56658172607422,Forsyth,2025-12-15T18:13:09.7960000Z,6674337A464E65636A7633477870646346515F564141
21.32390785217285,-157.8813934326172,Honolulu,2025-12-15T18:11:03.0730000Z,424C51616D684D683352614D4474664A5A3765536941
34.73589324951172,-92.31678009033203,Little Rock,2025-12-15T18:11:50.9750000Z,676274527233673149312D786E457A353979754E7277
41.15229034423828,-73.49120330810547,New Canaan,2025-12-15T18:10:23.2860000Z,4F576F6E524E4644665531305457394D6243525F3367
38.73491668701172,-95.26778411865234,Baldwin City,2025-12-15T18:09:46.6140000Z,723650367A4757477961635857576179427050625367
-24.760035499999997,15.2929237,Sossusvlei,2025-12-13T19:47:54.0740000Z,43416F534C4546474D5646706345314E5545393552565579526D6C78524539345255467562564279626E6478566E4E716247563054546B7462324E6957453571
47.5549719,10.7495568,Schwangau,2025-12-13T19:48:04.7450000Z,43416F534C4546474D564670634535564E6D746853464A5A567A6475546B68425A7A41325654523263457446566A56455648527252465A33516B78715A6E4E78
-25.742196099999997,28.2114653,Pretoria,2025-12-13T19:48:18.7440000Z,43416F534C4546474D564670634642445246564F5432673561316C5A553064475A3246486458704556557874624639424C57706B64315A36556C5A71557A5978
48.86153422670043,2.334548093816348,Paris,2025-12-13T19:48:29.5410000Z,533979325A78626C4E4849435436416A564C38475451
-35.27045646478124,149.1580386268634,Campbell,2025-12-13T19:49:05.8650000Z,3264515556686F53776C4D6E68675A41345778324167
60.16983081424641,24.95267187543678,Helsinki,2025-12-13T19:45:13.9220000Z,784557313943734966514D7A677A7749454A674C4E77
38.8906351147276,-77.01256542887575,Washington,2025-12-13T19:45:35.2630000Z,49702D4D426E4E6B6F51502D4F383637676175505367
47.61588399676293,1.517448725143595,Chambord,2025-12-13T19:45:59.3770000Z,39496C5149485639784C5A4834623244527164714F41
45.43737214546385,12.327187394769668,Venezia,2025-12-13T19:46:33.9220000Z,4161454434462D4242746C584A5F535472654B687951
56.94743802392221,24.10635158889685,Rīga,2025-12-13T19:47:25.7560000Z,2D33366D33556D345245554343436A757A666A596141
18.922211093106387,72.83436723556977,Mumbai,2025-12-13T19:41:09.9980000Z,3351346D562D4967634D4D44626A3167616B564D3251
5.549146488069447,-0.1922793925326768,Accra,2025-12-13T19:41:54.3480000Z,534A507271674C4679326375714D55442D2D52575977
40.94804876215679,-4.117671016146081,Segovia,2025-12-13T19:42:24.9290000Z,463435614C6238416F6D4433796A6A42546B30734477
59.91671994844391,10.729423411984897,Oslo,2025-12-13T19:43:33.7680000Z,70576143514E4A72584B35625073344D613075713077
41.40257501242112,2.174189918037853,Barcelona,2025-12-13T19:44:35.8270000Z,4E386338645F47774B3744675A4C3747755A42306E67
47.26962398693138,11.393311470122475,Innsbruck,2025-12-13T19:39:06.2330000Z,736330436A3250376D4967705659516C5074756E4377
-32.94771055968986,-60.62927542880507,AWB,2025-12-13T19:39:28.6130000Z,394B3754695F745F53397752444B4851447A44624851
43.50839659349261,16.44019172850946,Split,2025-12-13T19:39:48.5050000Z,4F7A527A5A4768714C567577464C4142456251746D51
29.93556,52.889374399999994,Takht-e Jamshid,2025-12-13T19:40:30.1410000Z,43416F534C4546474D564670634531475543313163484E59633074325A6B4E70555846494D6C4D35526D4666566B4A756433464F644735505657564259317078
40.71064395149068,-74.01297612056963,New York,2025-12-13T19:40:42.6460000Z,575875596F4F58536E4464415451326F3639556E5051
38.88996064563004,-77.03679941137494,Washington,2025-12-13T19:33:32.1920000Z,3257753333515465715A33515F63332D4D6235487177
19.43626676320216,-99.15400572963112,Ciudad de México,2025-12-13T19:35:11.0490000Z,727A46747A4F4C443664457A6B4B6F307337542D6E67
-34.608268718640566,-58.372345307907075,Buenos Aires,2025-12-13T19:35:42.3650000Z,47747763327377654245555F5F7739524A3355764677
28.55383738159748,77.25994097615535,New Delhi,2025-12-13T19:36:21.5620000Z,43416F534C4546474D5646706346413352455A685255464B5A304D7A647A6C764D485A6F556E4A3565444E6E5432786F5A335A6F536A565553444A5053565A30
48.447497553017065,1.48835550502395,Chartres,2025-12-13T19:37:06.4910000Z,4E566F485731554A42566436626B7435786279797467
51.12808990478515,71.42921447753906,Astana,2025-12-13T19:29:38.1400000Z,43416F534C4546474D5646706345394665546C345A3064505347467A4D564E6E52475644634746314E464268627A637A644545354C584253645770684E316B78
43.72246100513929,10.396431200384042,Pisa,2025-12-13T19:30:15.6670000Z,37644B4569624870336F42674145695373585F617277
40.71064395149068,-74.01297612056963,New York,2025-12-13T19:30:53.0720000Z,575875596F4F58536E4464415451326F3639556E5051
14.601149811259956,-90.51868338415936,Ciudad de Guatemala,2025-12-13T19:31:38.7070000Z,717A386F7256475266476653374249616D716E696651
4.8150903775949505,-75.3725565505066,Villamaría,2025-12-13T19:33:06.0150000Z,31557565455874766A685365594D6B66745A58714667
28.524840338691796,77.18598278426737,New Delhi,2025-12-13T19:27:45.1880000Z,38365939597049523278793838644158647A612D5351
40.68906307149133,-74.04382068021988,Jersey City,2025-12-13T19:27:57.4640000Z,7952562D6F6E46442D614770644E643939694C734651
-24.5722297,30.798537900000003,Matibidi,2025-12-13T19:28:17.2960000Z,43416F534C4546474D5646706345314C4E30773062444E365833524D4E7A4E534E57464751576846544735795630314E5548637858313968536B5266636E524D
59.939067400000006,30.314887,Sankt-Peterburg,2025-12-13T19:28:34.4390000Z,43416F534C4546474D564670634539344F48426D4E573956596D7857575774554E305A474E6E4A4F61466C76515764754E5856304E334A4B4E5670546330686E
34.38475847389059,109.27407201379538,Xi An Shi,2025-12-13T19:29:07.7280000Z,43416F534C4546474D56467063453161557930325A315A665154566E62544E55555559324E57357652544D35626E5977525870684D315A4A4D544A764E6A4E53
41.89946647234936,12.476560144274144,Roma,2025-12-13T19:20:34.0400000Z,2D755744644F704862485F544958527359467A727567
50.09020837607183,14.400706996311072,Prague,2025-12-13T19:20:57.1450000Z,547A4B6C706138595F58476D79544C63755F61303977
50.89413123664746,4.342440905854018,Bruxelles,2025-12-13T19:22:19.2500000Z,794B71594A4F5A386D634F527863324D513068477241
19.69305960809916,-98.84598174992476,Teotihuacán de Arista,2025-12-13T19:24:35.6030000Z,7637355274645248437355684C65576C387155693277
12.0335863,39.043575,Lalibela,2025-12-13T19:25:36.9070000Z,43416F534C4546474D56467063453947616C6B3362336C73526E646F4D45387A626B74664E303966633152325630707A4E573432566E7074656A46616548564C
-20.242382407852475,-67.62574995990812,Nor Lípez,2025-12-13T19:16:54.9300000Z,6F2D4537504F62366752706A56654A346966466D5867
47.49647702542431,19.038519177849548,Budapest,2025-12-13T19:17:05.0350000Z,43416F534C4546474D5646706346425762585656644578495A7A525A5558553464546C434D6C564D4E7A4677567A4245613152425344687551565A5A63555A74
3.1589095613321656,101.71056383112378,Kuala Lumpur,2025-12-13T19:18:02.1000000Z,57342D556B3072634A44564E7756474E483345795367
52.52041305792205,-7.889993426320302,Cashel,2025-12-13T19:18:23.5750000Z,6F387A566474717361545A414855752D626B784F6F51
39.948248542202144,-75.15012361630116,Philadelphia,2025-12-13T19:19:51.9270000Z,6E7A664941524F45385A664B6A42745F6E57755F6A77
16.230802536010742,120.45811462402344,Rosario,2025-12-13T08:00:43.5410000Z,59624834522D77515267467653567731424D4B695177
47.78342819213867,30.425373077392578,Luchkivka,2025-12-13T08:00:49.5120000Z,30786E5F2D7A5047447A677538503236323053626367
44.42985153198242,22.796728134155273,Vânjuleț,2025-12-13T08:01:32.4050000Z,51574C4E337666796F52795A6B333142767369436551
40.42558670043945,37.15253829956055,Reşadiye,2025-12-13T08:03:34.7640000Z,613255347A6D4F55555148695254452D4A6A4C4E5F77
52.01350784301758,33.16816711425781,Forostovychi,2025-12-13T08:05:18.6110000Z,30444A3861685A6C6851796568557741674B6A4D6267
22.429113388061523,114.20914459228516,Hong Kong,2025-12-13T08:06:30.2570000Z,514A6B635746623332476962623941337A6679444467
53.944644927978516,-7.258961200714111,Marahill,2025-12-13T08:07:11.7620000Z,4770634E75566D7A675A76434B4B2D444646396B3351
36.92396926879883,34.89744186401367,Tarsus,2025-12-13T08:08:50.1600000Z,6F337A5835504C38456F37434471306E596E74677867
8.150070190429688,124.58256530761719,Talakag,2025-12-13T08:10:29.7510000Z,796F5049326C6E724B39725879303445333949745141
55.43088912963867,9.536394119262695,Bjert,2025-12-13T08:11:55.8280000Z,55715837494867426D6A304A76304735365433346A41
35.845035552978516,140.6138916015625,Katori,2025-12-13T07:55:37.3120000Z,38624A4F34706672476A6E795950476B69377A685477
-26.84145736694336,25.06819725036621,Broedersput,2025-12-13T07:56:12.9500000Z,6653637443346B594C586E59425F575361424C475941
0.6256284713745117,35.51935958862305,Kessup village,2025-12-13T07:56:45.2670000Z,745550314A72436D6B6A424953666E677575566A5351
56.90538787841797,24.212547302246094,Rīga,2025-12-13T07:56:52.0740000Z,395571795561786654334F6A53765A2D705949477841
31.984375,130.96649169921875,Kobayashi,2025-12-13T07:58:45.9370000Z,564A686273386B48497038616B5F50424C656D653977
65.78368377685547,-23.211599349975586,Ísafjarðarbær,2025-12-13T07:58:56.1790000Z,4B5031385F5A483674746B702D5F565A2D2D2D425951
44.17708896028259,26.368400077691685,Hotarele,2025-12-13T07:48:38.9490000Z,5038597943626936694F6769645143485A6363614E41
62.435759767322885,29.97954821907786,Joensuu,2025-12-13T07:49:01.5910000Z,4E5865786F5147654E4D3563614374464A36786B4841
53.78173974548536,-0.2644428842092424,Hull,2025-12-13T07:49:49.1300000Z,70456D3064374151733632377476384D38546D2D7A41
40.94294103661668,-3.660021162931399,El Cuadrón,2025-12-13T07:50:05.8670000Z,557A487371665433466B535777644834787058503141
47.84638530445586,26.331450599245894,Vârfu Câmpului,2025-12-13T07:50:56.4120000Z,5548746F7A2D4E354E36546F52784946356756725167
38.88983656672902,-77.00574008630652,Washington,2025-12-13T07:41:01.8090000Z,756F51465978594637446D3341655069347737315477
45.049579521287725,3.8815324237481743,Aiguilhe,2025-12-13T07:42:34.3680000Z,446E6A6D6459645A54474B527159617077596B567677
14.678423582760509,-17.44342464995071,Dakar,2025-12-13T07:43:26.3140000Z,436D44645F74696F6E757838647132784245614D5351
27.173412852581446,78.04225892119115,Agra,2025-12-13T07:44:37.5020000Z,6E48505F65636851574C6933745A616E425F41464951
4.8150903775949505,-75.3725565505066,Villamaría,2025-12-13T07:46:00.5220000Z,31557565455874766A685365594D6B66745A58714667
14.593886501280227,120.97055248555394,Manila,2025-12-13T07:37:02.2010000Z,675F784D5A436A684754677265744859626439456941
48.87415289751763,2.2947415515444383,Paris,2025-12-13T07:37:21.9810000Z,3750616E706D65317A5A314E6463324F4477325A6641
14.862680612086637,-15.87705515834751,Touba,2025-12-13T07:38:24.9180000Z,33625F6269627247344A42545A6B785A4450504C4777
54.685918762873,25.28644941162827,Vilnius,2025-12-13T07:38:33.6660000Z,57397159656E77445977305A6367514F7178584C6751
49.34290577746298,-123.11501728621457,North Vancouver,2025-12-13T07:39:05.0720000Z,484E6563516C395551523773576A7151665A6C5A3441
34.9673470791505,135.7725752036352,Kyoto,2025-12-13T07:34:28.3910000Z,5259546B6E384F6546574F576979682D59426B4C3151
31.624572812988145,-7.993436283659629,Marrakesh,2025-12-13T07:35:01.5110000Z,43416F5346304E4A534530776232644C52556C445157644A52475631587A4E4D656D6446
6.0301981,80.215092,Galle,2025-12-13T07:35:35.4730000Z,43416F534C4546474D5646706345396C563245775579314B4F4535695258457951793153636C395A656E63304E6B5266546B6B7963323533546D745159576443
50.4353709392498,30.55786431848361,Kyiv,2025-12-13T07:35:49.0990000Z,49444373774E537450525349424A2D50744B58617751
41.32833162281096,19.818382706083757,Tiranë,2025-12-13T07:36:10.5960000Z,43416F534C4546474D564670634539436455685252554535595667314C58524F52476C304D466B336346684B59325669616C56694E3068426558703665576C4A
34.9673470791505,135.7725752036352,Kyoto,2025-12-13T07:25:40.5720000Z,5259546B6E384F6546574F576979682D59426B4C3151
-43.53124139876974,172.63615666541403,Christchurch,2025-12-13T07:25:59.1530000Z,7934786850516E714C4B6D394B4F4377563766477367
59.92755631806363,10.699332142418513,Oslo,2025-12-13T07:27:42.5170000Z,6345594D574B67736E48713765335544726A6A344F77
38.698076978165275,-9.207395945737842,Lisbon,2025-12-13T07:29:53.3900000Z,6C684A724E6B6A337A703441414152504942584F6851
40.7066384858453,-74.0108455906549,New York,2025-12-13T07:33:32.8410000Z,547672513837764B624C6C78537841704D6D4E4E7277
-27.462666119187393,153.03409367798136,Brisbane City,2025-12-13T07:17:20.2820000Z,4D6B676F687A5672306C4A47594C7149414E6B745051
52.514702257481645,13.349077452799587,Berlin,2025-12-13T07:17:55.3550000Z,3772357A55665965734E764E45367A3154596A773577
56.039128483637285,12.62146455859795,Helsingør,2025-12-13T07:21:07.7160000Z,644A794D3862597667494E71594D637473544B495641
56.03983199034428,12.62264055976729,Helsingør,2025-12-13T07:21:53.1650000Z,784B366A7934695F424C38496A6E6766784C2D736341
71.17092902079087,25.783128142196286,Nordkapp,2025-12-13T07:24:34.6450000Z,6467703366337644695A6E44687970474F5742506E51
-34.35756973922008,18.475179571016184,Cape Town,2025-12-13T07:12:14.7060000Z,41514B3772494A7966637038636A50436D6171454351
37.17733123999616,-3.591420816036134,Granada,2025-12-13T07:12:38.2240000Z,4F744B734F4D616178374575765345444B6A686D6851
5.017467643008163,-74.01202285464854,Zipaquirá,2025-12-13T07:13:50.7490000Z,6269795544356E47674D6848474C6E5669506D533141
12.0335863,39.043575,Lalibela,2025-12-13T07:16:28.3290000Z,43416F534C4546474D56467063453947616C6B3362336C73526E646F4D45387A626B74664E303966633152325630707A4E573432566E7074656A46616548564C
33.6067505,-7.6321526,Casablanca,2025-12-13T07:16:48.4130000Z,43416F534C4546474D564670634642545956686E6456396E535463744E476332516E4A4357565A685A4764785154684B635445355754423665445279656E5673
50.83575439453125,5.196452617645264,Sint-Truiden,2025-12-11T22:21:23.2110000Z,5032357562446958645774454D6E4E6E675357554967
29.89101219177246,-97.67146301269531,Lockhart,2025-12-11T22:23:21.7690000Z,414F665756566C3645427A6630726159706B43333177
31.98882484436035,76.78961181640625,Joginder Nagar,2025-12-11T22:29:12.6020000Z,3179434A4730676A745F6F41414152417445616D7441
54.55238342285156,-7.186546802520752,Beragh,2025-12-11T22:29:39.0980000Z,4854386F6F77454D666A6266544E475F416531413451
34.05257034301758,131.1525115966797,Sanyoonoda,2025-12-11T22:31:40.1990000Z,5A5961492D495A2D786F4C39397558787A7A4A5A2D51
48.19715881347656,11.57496452331543,München,2025-12-11T22:15:12.7120000Z,456D687241796A546B70434A6F645551544C77624751
19.84157943725586,-99.20751953125,San Bartolo,2025-12-11T22:15:38.1750000Z,6C6D5569426A56325A6D31597A67614736646C495067
0.3600299656391144,100.05943298339844,Pasaman Regency,2025-12-11T22:18:54.1580000Z,396F754152754D74575770327A5257784D3273594777
38.1346435546875,-85.61898803710938,Louisville,2025-12-11T22:19:11.4410000Z,6159422D67587649675343524D66526943756D644951
41.01144027709961,34.0947380065918,Tosya,2025-12-11T22:21:03.9970000Z,587A58356B782D2D4E6D5A2D53327864774174703651
32.42885971069336,-117.04914093017578,San Antonio,2025-12-11T21:01:53.5050000Z,6D2D726A7278742D386970593957416D4C544F484267
41.35056686401367,21.554733276367188,Prilep,2025-12-11T21:03:05.7000000Z,6265444369694366536D35647A7537483758376C4267
48.26266098022461,-116.56377410888672,Sandpoint,2025-12-11T21:04:08.2780000Z,2D69304C76315136596863454833454B5F6574593741
-22.359375,-47.37324142456055,Araras,2025-12-11T21:07:19.0470000Z,4A4F6232625A52737442612D746579495F766F626F67
50.90290832519531,9.874836921691895,Ronshausen,2025-12-11T21:09:11.7730000Z,6C334541615F4D436A753767734A6D474D3867376941
40.418296813964844,-3.7081985473632812,Madrid,2025-10-11T22:47:39.5410000Z,317975786A64735A5542493569566B37646930473551
40.41441345214844,-3.6849653720855713,Madrid,2025-10-11T22:49:00.2220000Z,52786F594A716747306C61485956754B456463414941
40.4521598815918,-3.6654982566833496,Madrid,2025-10-11T22:49:58.4850000Z,36536C566D714B7243594D4D745F6C65414E37576C67
40.41577911376953,-3.6958866119384766,Madrid,2025-10-11T22:51:39.7900000Z,4D374A506F6E52435779356C464E4A72685A72484951
40.41994857788086,-3.6987926959991455,Madrid,2025-10-11T22:52:02.9220000Z,66636F72762D58374967784E4855384C4D38346B7A67
-33.477455139160156,-70.59150695800781,Macul,2025-10-11T22:44:50.1850000Z,767876385159424363764D41366A33724F7232486451
-36.62840270996094,-72.09347534179688,Chillán,2025-10-11T22:45:10.1580000Z,4456346C424C4C4E4D6F362D485842304B6537485377
-30.011985778808594,-71.26163482666016,Coquimbo,2025-10-11T22:45:27.9910000Z,64626C746834644F5245382D5449566B4C734A685677
-34.03984832763672,-70.70701599121094,Cachapoal,2025-10-11T22:45:40.7100000Z,646D6334654D386269374951694859386D506D384851
-33.00975799560547,-71.25575256347656,Limache,2025-10-11T22:45:54.7660000Z,4D48364E546F464D6273735138724655576C52353841
53.48859405517578,-2.9738035202026367,Bootle,2025-06-26T04:18:44.9500000Z,6F505558417345447077504A4A667369564759793467
50.11750411987305,8.651606559753418,Frankfurt am Main,2025-06-26T04:19:39.3430000Z,4C554477524842736A6B794D3966615665725A344E41
43.77680969238281,11.285628318786621,Firenze,2025-06-26T04:20:30.3480000Z,477469773836777869354466624D45574950706A4341
47.27162170410156,39.80557632446289,Rostov,2025-06-26T04:22:50.0090000Z,4A7970354F6D704263356C41634F495F444246474567
41.12255096435547,-8.569007873535156,Avintes,2025-06-26T04:23:03.8670000Z,31584568536A356B3458376C36774D37316255386551
45.3277473449707,14.444219589233398,Rijeka,2025-06-26T04:17:31.4250000Z,47346E6634645F43594C6166544F51554D4633484E41
52.623531341552734,-1.1331063508987427,Leicester,2025-06-26T04:17:46.5830000Z,5946496757676E5530526D754D4C617435545F434D41
56.502830505371094,21.018665313720703,Liepāja,2025-06-26T04:17:56.5660000Z,456C6E6B6862515A423864514473524246646F375267
41.32419967651367,19.809797286987305,Tiranë,2025-06-26T04:18:10.4740000Z,6A6E7A694D6C4F5F6D4571614D3255746E6665426741
44.83456039428711,-0.6585485339164734,Mérignac,2025-06-26T04:18:19.2580000Z,4E765A6533375A365573484D5843646A442D39543041
-33.29951095581055,23.475618362426758,Willowmore,2025-06-26T04:16:34.9470000Z,7972424E35474338556648465851367870586A473777
55.974937438964844,12.029144287109375,Frederiksværk,2025-06-26T04:16:48.3800000Z,4E6636716368737A787263325A4B4772572D68524541
-8.100286483764648,-78.99942779541016,Víctor Larco Herrera,2025-06-26T04:15:25.0090000Z,512D795F6D356F464668636E4B4E6D43686F34714177
-29.28908348083496,31.359764099121094,Nkwazi,2025-06-26T04:15:47.9960000Z,6148787541667443497355476D775132587658756E51
46.61210813050393,13.845727721474992,Villach,2025-06-26T04:11:46.7360000Z,4C4E546F456967616977316E4E6365504B382D666277
53.214947848101424,6.567956157834461,Groningen,2025-06-26T04:12:20.4290000Z,4167716B4737506E487A777630363867484F35633677
50.62609879732505,3.0405469324863024,Lille,2025-06-26T04:12:37.2900000Z,6D42526C5073316F4342477434587749307077796B51
36.70993865319816,-4.428323587721794,Málaga,2025-06-26T04:14:19.3430000Z,5A6671617036484447654D4D4E64657744534F725277
56.8440786242393,60.63112367427735,Yekaterinburg,2025-06-26T04:14:42.4930000Z,4F6B6A513253596A473431624E463663706E6C304D41
58.413191394340934,15.623952968698148,Linköping,2025-06-26T04:10:33.5490000Z,575F3849355164656D4334547558673962664C645867
58.8493420682102,5.732483857016829,Sandnes,2025-06-26T04:10:44.3360000Z,536932504F74534D4266576C56536145494D6B737767
54.39567823387339,24.03893889903027,Alytus,2025-06-26T04:11:02.7140000Z,347A7475456B7877493036657A393967395677346367
59.39887128411156,27.286245828342665,Kohtla-Järve,2025-06-26T04:11:11.2100000Z,646F4B3776394C684C6C746D48365378715257435051
50.76680298361406,15.05072870499024,Liberec,2025-06-26T04:11:19.7910000Z,494A55593359566D536E4251442D476D2D4F6E5F5167
40.202332386802496,-8.404147763198626,Coimbra,2025-06-26T04:09:35.0140000Z,55785F4763446252786E47423465625A663170784551
45.47141337257139,9.196236510235012,Milano,2025-06-26T04:09:44.7970000Z,305F76484F78596956416E49644B7663324362595867
62.24578848528558,25.75033238040387,Jyväskylä,2025-06-26T04:09:53.0410000Z,57614349563042674C49673271474E7574356E2D4E51
55.732930665648524,24.358199618613305,Panevėžys,2025-06-26T04:10:04.7800000Z,715670674F677546434235732D324639504362653467
56.326671257053775,44.00585824183321,Nizhnij Novgorod,2025-06-26T04:10:23.7930000Z,546832465736335630446744467167705654644D3541
47.54148549982242,21.610025932648202,Debrecen,2025-06-26T04:08:29.6110000Z,6B497A56464F42446F346B557A6C552D5251646F5867
44.17984941159575,28.63606591833415,Constanța,2025-06-26T04:08:46.3060000Z,674B706C416F724F61456E6A32454F6C4E6973426A67
64.15443398939043,-22.00016999663828,Seltjarnarnes,2025-06-26T04:09:06.4400000Z,2D7A32355352593047446C6E51636F2D6D6D52336367
59.39887128411156,27.286245828342665,Kohtla-Järve,2025-06-26T04:09:13.4390000Z,646F4B3776394C684C6C746D48365378715257435051
59.28722546302022,15.204584626392633,Örebro,2025-06-26T04:09:23.1830000Z,344B756D356A6568744C586148335665313152554E51
44.32705551423786,23.79721474690893,Craiova,2025-06-26T04:07:11.2990000Z,415F565076327562724A5A4F72517463526538735741
56.046561006646925,12.70144364652845,Helsingborg,2025-06-26T04:07:19.8180000Z,554F4A6D64303248496B66757761526E727A69533467
57.04955989891912,9.907056144282455,Aalborg,2025-06-26T04:08:03.0900000Z,5F335534384E4738486F306874776963467773415167
37.15636298903081,38.78383627848863,Şanlıurfa,2025-06-26T04:08:11.4460000Z,72756F42747871314B6B4F7947525F55506677596F77
55.68047862104191,12.57124654140961,København,2025-06-26T04:08:20.5630000Z,706C5556615834325F344779313051364846584C4267
45.55027002806315,18.69393687168293,Osijek,2025-06-26T04:05:38.7460000Z,76744A645768724E67713253547132615156684B2D77
43.61798530567544,1.4366977220908197,Toulouse,2025-06-26T04:05:49.1050000Z,6E4E4E4E4D624841704E4A6C63314B4B715452635041
50.38909469773546,4.468363050037491,Charleroi,2025-06-26T04:06:01.1690000Z,7665713457536757766D484E7543594663766D527967
47.95906271820601,21.714152598881302,Nyíregyháza,2025-06-26T04:06:27.4150000Z,51325774356B2D73556131564E2D5131385F71633051
43.32377618733421,21.908834212687697,Niš,2025-06-26T04:06:35.8290000Z,3563487341506B797153565F617A685A75664C776867
49.84478690069992,24.027278935656913,L'viv,2025-06-26T04:04:38.8200000Z,56486335362D6332544A315451544E437161486A4851
55.744634138511664,37.60180515595065,Moskva,2025-06-26T04:04:52.4630000Z,555554634E454E657561354768694951336232476667
61.48817879938074,21.80387512264419,Pori,2025-06-26T04:05:05.9190000Z,564934456965696D39676A4F512D6263416530505251
40.64085777793828,22.93446393816777,Thessaloniki,2025-06-26T04:05:17.5790000Z,323656566B6F753364334169754C4F4C36506E6B6A51
38.75749748567815,-9.259729035861596,Queluz,2025-06-26T04:05:26.9290000Z,384D3143576348673145495976624538613545574877
57.38560852308105,21.546857630213022,Ventspils,2025-06-24T06:21:33.6830000Z,7934545143346A356F3056546C30656B423234525A77
39.633288216800565,22.43532228830209,Larisa,2025-06-24T06:21:42.2850000Z,5A304268365932413443513765427331434671676B67
40.47674187114021,-3.6592668460619984,Madrid,2025-06-24T06:21:54.3540000Z,514C38304249504576487346764D4235413667363141
64.06686583114447,-21.956492015741528,Hafnarfjörður,2025-06-24T06:22:02.9380000Z,35717352487138664436366463764C5442497A344F51
44.12258282303762,15.238238814459525,Zadar,2025-06-24T06:22:15.7710000Z,6D5F72785F502D48324E51307668306A757178353167
46.071156769544075,18.23328495902089,Pécs,2025-06-24T06:20:39.6850000Z,393168365531343571624F4A63534E414539586C6567
59.932613311839354,30.347588763027687,Sankt-Peterburg,2025-06-24T06:20:49.2060000Z,71795F5669335162637367774B434273745752386E67
51.091127249165126,3.709510691706117,Gent,2025-06-24T06:20:59.4090000Z,564E2D4E57382D30747541514166726466374F672D51
48.37512060624189,17.592137831243825,Trnava,2025-06-24T06:21:14.7980000Z,6E63674B63474A53457A78564545464C7A4E5F746167
51.11070934868336,17.03925639290721,Wrocław,2025-06-24T06:21:25.3830000Z,394F53785F41574442515346427153734F4D2D554E41
40.840507454985634,14.253894178559293,Napoli,2025-06-24T06:18:59.3890000Z,7772677A7934585355735355777A7451534142396541
36.70993865319816,-4.428323587721794,Málaga,2025-06-24T06:19:12.2780000Z,5A6671617036484447654D4D4E64657744534F725277
48.77452672345901,18.62418783347377,Prievidza,2025-06-24T06:19:20.2790000Z,694E51795873736D7048387747694C367A585A586877
60.39652470371624,5.324313807409433,Bergen,2025-06-24T06:20:04.4360000Z,675377667A53456D3878534459717450744235745877
46.55426695615602,15.650627679217855,Maribor,2025-06-24T06:20:22.0970000Z,39494571534777566142752D774656646954767A5741
55.414441581585976,10.396756456847124,Odense,2025-06-24T06:17:32.9190000Z,534E38424A72596A49326E574F48535852715F365851
49.45438759294218,11.078661478065948,Nürnberg,2025-06-24T06:17:45.4710000Z,646A4D5A4D487A79544F414970773644376A6D454A41
47.843614306084575,35.13038541848557,Zaporizhzhia,2025-06-24T06:17:54.0010000Z,55687538345543386C53784550524145685A61417851
61.48817879938074,21.80387512264419,Pori,2025-06-24T06:18:06.0760000Z,564934456965696D39676A4F512D6263416530505251
49.84478690069992,24.027278935656913,L'viv,2025-06-24T06:18:38.3430000Z,56486335362D6332544A315451544E437161486A4851
50.94307391290584,6.962255640568308,Köln,2025-06-24T06:16:21.1490000Z,48365F5645777A6E62734D5162787648675A33776E67
57.70227546876109,11.955165157331152,Göteborg,2025-06-24T06:16:31.3440000Z,34446538536E584236385878314D6768336A39544F51
56.8440786242393,60.63112367427735,Yekaterinburg,2025-06-24T06:16:42.4990000Z,4F6B6A513253596A473431624E463663706E6C304D41
47.95906271820601,21.714152598881302,Nyíregyháza,2025-06-24T06:16:58.1500000Z,51325774356B2D73556131564E2D5131385F71633051
47.15948201000564,27.591829824739428,Iași,2025-06-24T06:17:09.8100000Z,62735A76724B49384253546E37543948546530464A67
45.49221415523859,15.53985344962785,Karlovac,2025-06-24T06:14:50.7310000Z,466F69566467644F7743566735534571496964783541
51.26631933108501,5.3959272328917365,Lommel,2025-06-24T06:15:00.3900000Z,7062474A4933356E38396A466667584471675F617777
46.361941163327074,15.110552627670602,Velenje,2025-06-24T06:15:36.9150000Z,505A4A674E41535A63444C585872326F487758465A41
56.5070961427899,27.33132326600836,Rēzekne,2025-06-24T06:15:59.7390000Z,4E477A536F344539575331584C38595F4C6F6C304967
48.868082267178345,2.348304300863009,Paris,2025-06-24T06:16:07.2800000Z,7932726B354C674864324841365451306772644D7977
60.45719096206127,22.267468194652924,Turku,2025-06-24T06:12:54.0010000Z,6B52714E784D34336D44367051395A62656230477A51
45.067578907787954,7.676458282253963,Torino,2025-06-24T06:13:23.9110000Z,7A71506E3865796C4F616A793635527365382D6A6877
58.5873875489343,16.196844261693062,Norrköping,2025-06-24T06:13:37.0710000Z,5667755F463831725356735F6C7656785079636D6477
55.89255996668368,26.53551440929583,Daugavpils,2025-06-24T06:13:46.4550000Z,4C615A417A366A6F6A484B68737731336B6436693251
45.54827919625411,13.73253413231968,Koper,2025-06-24T06:13:54.0900000Z,51766E6E4F505471644F6751584135727A4E79714641
43.277362195683345,26.926520936851063,Shumen,2025-06-24T06:09:39.0840000Z,6D34416F484446385A3552434F6165534B62356B5A67
48.165609885081835,14.027046861122479,Wels,2025-06-24T06:10:06.6510000Z,38414F3170534F6573516E37746559446A51356E4941
57.53814346687538,25.4235750520519,Valmiera,2025-06-24T06:10:29.0310000Z,61572D3557784D72684A31677A524B38723770694941
44.012912376196645,20.89569581231961,Kragujevac,2025-06-24T06:10:36.4660000Z,43745435556D3231535732444F572D4233346F495551
36.81218883203624,34.64130657922123,Mersin,2025-06-24T06:10:52.4910000Z,362D71624551445564434E79395147636B43302D7341
39.48092885275409,-0.3335402725829577,València,2025-06-24T06:08:33.1660000Z,657A7753336D696A717558424C7339452D6257647A51
59.932613311839354,30.347588763027687,Sankt-Peterburg,2025-06-24T06:08:42.0830000Z,71795F5669335162637367774B434273745752386E67
57.70227546876109,11.955165157331152,Göteborg,2025-06-24T06:08:52.1800000Z,34446538536E584236385878314D6768336A39544F51
46.61210813050393,13.845727721474992,Villach,2025-06-24T06:09:01.5880000Z,4C4E546F456967616977316E4E6365504B382D666277
48.009113968256344,37.80418649529112,Donetsk,2025-06-24T06:09:18.5670000Z,7A435267745356475A6B74706D527839426A31646551
61.48817879938074,21.80387512264419,Pori,2025-06-24T06:07:26.2940000Z,564934456965696D39676A4F512D6263416530505251
37.38832983368252,-6.000349526479475,Sevilla,2025-06-24T06:07:52.3420000Z,6C374567386F3972386249486B5250587648654D6451
39.633288216800565,22.43532228830209,Larisa,2025-06-24T06:07:59.1480000Z,5A304268365932413443513765427331434671676B67
48.105234855018,20.785193279570045,Miskolc,2025-06-24T06:08:14.9980000Z,397A3441345F634266536471332D7647377564365241
59.456559217253854,24.98926877119849,Maardu,2025-06-24T06:08:24.4120000Z,5F3852474364536D34434D496D78485A774464444E67
54.68710056959259,25.279739088563975,Vilnius,2025-06-24T06:06:01.5530000Z,68486A307656644B5779577157535257766A70413041
37.51591234843784,15.079997177926067,Catania,2025-06-24T06:06:14.4660000Z,4F33333476445F546F754732754F36316459435A6F77
43.88493595785808,20.33498558890338,Čačak,2025-06-24T06:06:30.7970000Z,65516D354A763445484464474B4F464E4B624E346951
58.234733388081665,25.86291609595368,Mustla,2025-06-24T06:07:05.0890000Z,58325644516777576F3037376E6C4839547652674A67
56.9672460544693,23.770460976916215,Jūrmala,2025-06-24T06:07:13.6640000Z,524B536E61536D644675576A37626E4877326A725551
56.5070961427899,27.33132326600836,Rēzekne,2025-06-24T06:04:59.9500000Z,4E477A536F344539575331584C38595F4C6F6C304967
40.47674187114021,-3.6592668460619984,Madrid,2025-06-24T06:05:07.1950000Z,514C38304249504576487346764D4235413667363141
51.21578907883692,6.782405164731789,Düsseldorf,2025-06-24T06:05:19.0480000Z,4C5543716F6B2D466B6F64453173386F58624C6C4667
37.51591234843784,15.079997177926067,Catania,2025-06-24T06:05:28.8440000Z,4F33333476445F546F754732754F36316459435A6F77
43.75053397518359,15.896272491682812,Šibenik,2025-06-24T06:05:42.3660000Z,307241727A4A334D54364E49566D32636A6367657151
38.0428671602466,23.767702196338018,Iraklio,2025-06-24T06:03:05.8520000Z,30714B4D5250596E39347272493870545F355F464341
56.8440786242393,60.63112367427735,Yekaterinburg,2025-06-24T06:03:32.3350000Z,4F6B6A513253596A473431624E463663706E6C304D41
58.391634352165255,24.494838518342693,Pärnu,2025-06-24T06:04:04.2840000Z,4649303931524D4F75416672594C364937516E676F51
37.15636298903081,38.78383627848863,Şanlıurfa,2025-06-24T06:04:23.8470000Z,72756F42747871314B6B4F7947525F55506677596F77
43.4106168370423,24.619484990388543,Pleven,2025-06-24T06:04:43.3060000Z,5F495F6273467563764B456566346A4569455A6F5441
59.396633404291705,27.76018987177855,Sillamäe,2025-06-24T05:59:35.1670000Z,586F76686F7444666649775648785A64553131366277
51.25624984995958,22.5751897104955,Lublin,2025-06-24T05:59:49.9960000Z,72325070466E673759723646533353374B4A53433477
51.11070934868336,17.03925639290721,Wrocław,2025-06-24T05:59:57.7290000Z,394F53785F41574442515346427153734F4D2D554E41
48.868082267178345,2.348304300863009,Paris,2025-06-24T06:00:04.5880000Z,7932726B354C674864324841365451306772644D7977
65.01295675985811,25.485548261947425,Oulu,2025-06-24T06:02:40.2020000Z,3344785974786C394138344A44767175444344414A41
44.42879054527585,26.10135708863518,București,2025-06-24T05:58:09.8410000Z,4473716E536E64707A665A61616C4C70504C6E543541
58.391634352165255,24.494838518342693,Pärnu,2025-06-24T05:58:19.2510000Z,4649303931524D4F75416672594C364937516E676F51
49.22063561368659,18.742313379337272,Žilina,2025-06-24T05:58:46.9420000Z,453341345671455362514275714A6C43665255673351
49.45438759294218,11.078661478065948,Nürnberg,2025-06-24T05:58:56.8810000Z,646A4D5A4D487A79544F414970773644376A6D454A41
46.76921840614273,23.60947756000522,Cluj-Napoca,2025-06-24T05:59:14.2690000Z,71624F744A6A2D55595844337A5661784D30395F7641
38.078902341578384,23.73778375548408,Acharnes,2025-06-24T05:56:52.7220000Z,73454B773446466F334B58305165304C444D616A4577
41.12693138182948,-8.610884125381457,Vila Nova de Gaia,2025-06-24T05:57:09.7520000Z,33656967704E7474495F6E72324A4F654B5A62763751
44.42879054527585,26.10135708863518,București,2025-06-24T05:57:26.1160000Z,4473716E536E64707A665A61616C4C70504C6E543541
47.843614306084575,35.13038541848557,Zaporizhzhia,2025-06-24T05:57:45.9830000Z,55687538345543386C53784550524145685A61417851
46.071156769544075,18.23328495902089,Pécs,2025-06-24T05:57:56.8530000Z,393168365531343571624F4A63534E414539586C6567
52.22344213374009,21.015395165545268,Warszawa,2025-06-24T05:55:35.3250000Z,71535052637A68634242595370456247557876317577
48.46544543291112,35.04486574259894,Dnipro,2025-06-24T05:55:47.5520000Z,465A743458496957556F42597A694F44515938693767
60.16752042274744,24.942313618990035,Helsinki,2025-06-24T05:56:02.8580000Z,78566E457036626E582D6E4D504D646A683932546167
48.778835121636845,9.163078693376677,Stuttgart,2025-06-24T05:56:29.0260000Z,5845654C304F68496B67586B55634561544F41745651
57.70227546876109,11.955165157331152,Göteborg,2025-06-24T05:56:40.1390000Z,34446538536E584236385878314D6768336A39544F51
36.93019741614153,30.712776852689256,Antalya,2025-06-24T05:54:13.4740000Z,74786C374B625149313157432D494D304B4455347251
45.47141337257139,9.196236510235012,Milano,2025-06-24T05:54:24.3690000Z,305F76484F78596956416E49644B7663324362595867
48.309200320791625,18.079274667978552,Nitra,2025-06-24T05:54:34.2820000Z,725F376757596177745375485F785F6B6A374F743377
43.784496699364425,11.247344021160236,Firenze,2025-06-24T05:54:51.7150000Z,69723133496A7459644766765079484A694E6E515351
52.28032369957499,10.53643647786497,Braunschweig,2025-06-24T05:55:09.4810000Z,7545376452773735417961662D357871497446425A51
38.758086186197545,-9.228404323489915,Queluz,2025-06-24T05:53:19.9830000Z,42503278555456494C7774357362525643325F595077
43.51230525570108,16.443528496132608,Split,2025-06-24T05:53:29.4440000Z,79703955553566526D4B675930723971486E35535241
37.15636298903081,38.78383627848863,Şanlıurfa,2025-06-24T05:53:37.5500000Z,72756F42747871314B6B4F7947525F55506677596F77
45.55027002806315,18.69393687168293,Osijek,2025-06-24T05:53:46.0370000Z,76744A645768724E67713253547132615156684B2D77
49.05406549405907,20.294992462992777,Poprad,2025-06-24T05:53:55.0850000Z,5958443178566D5466554E41544D566C4A4855625341
63.99818120820295,-22.54933480712142,Keflavík,2025-06-24T05:43:28.4690000Z,636F3248527A4A33516C634D6D637A4964642D6C3467
36.70993865319816,-4.428323587721794,Málaga,2025-06-24T05:43:36.0400000Z,5A6671617036484447654D4D4E64657744534F725277
32.646059195145874,-16.92434808920823,Funchal,2025-06-24T05:43:45.6090000Z,2D764D63336A6E6B76497762664D6B48443876317067
55.47344965910246,8.435835549308333,Esbjerg,2025-06-24T05:44:02.3920000Z,695462516F526864516A4978672D51704855656A2D67
40.64085777793828,22.93446393816777,Thessaloniki,2025-06-24T05:44:11.7160000Z,323656566B6F753364334169754C4F4C36506E6B6A51
48.46544543291112,35.04486574259894,Dnipro,2025-06-24T05:42:08.9880000Z,465A743458496957556F42597A694F44515938693767
39.633288216800565,22.43532228830209,Larisa,2025-06-24T05:42:34.4890000Z,5A304268365932413443513765427331434671676B67
56.31142355957114,22.336273135846888,Mažeikiai,2025-06-24T05:42:55.1470000Z,6775656F75435673307375553256356669794C703151
56.50193125208016,25.878512043429296,Jēkabpils,2025-06-24T05:43:08.5490000Z,42444B4D54565761386A413757753251586B59484167
54.39567823387339,24.03893889903027,Alytus,2025-06-24T05:43:16.5660000Z,347A7475456B7877493036657A393967395677346367
49.82638396548779,18.247489425851807,Ostrava 9,2025-06-24T05:40:53.0220000Z,77394D41585168344B6245666E4D7074504938346351
41.01626202687844,28.976329200435316,Istanbul,2025-06-24T05:41:04.1350000Z,617754785A4145645358644232314755355A6F334577
65.01295675985811,25.485548261947425,Oulu,2025-06-24T05:41:31.4970000Z,3344785974786C394138344A44767175444344414A41
39.56634923832107,2.645338233294795,Palma,2025-06-24T05:41:41.0530000Z,67562D32544463426F68684C5230374D397746304A51
41.90578631155627,12.490769677227089,Roma,2025-06-24T05:41:53.8510000Z,527A555047527933694D466F704D467334334F787751
43.38959024166275,-3.228109701850663,Castro-Urdiales,2025-06-24T05:39:06.4950000Z,4965643669565352515642515A39434378526A6F7751
41.372820684853814,2.176684794517366,Barcelona,2025-06-24T05:39:18.9670000Z,512D6A464D6234437A437848684951524838564A4441
57.04955989891912,9.907056144282455,Aalborg,2025-06-24T05:39:34.7960000Z,5F335534384E4738486F306874776963467773415167
69.64835881873624,18.957749885164628,Tromsø,2025-06-24T05:39:46.8880000Z,36544145396C6B734A66563758466B4D4B64726B7051
50.07728443141841,14.452282671495572,Prague,2025-06-24T05:40:21.2450000Z,49774C7775424751304A6C462D597857673279743777
52.08927751594863,5.130518137466139,Utrecht,2025-06-24T05:37:37.5350000Z,374B56343136473974654D327A4E4B34565338594D67
51.46968669294198,5.477490258360176,Eindhoven,2025-06-24T05:37:57.4370000Z,595275462D677A614844563366547255376B6A2D5741
56.823905875094304,24.598791442792137,Ogre,2025-06-24T05:38:08.0100000Z,4F354E69555A316E3748514F2D6B4E53384168743241
51.13565133610763,4.571666774707522,Lier,2025-06-24T05:38:16.8280000Z,6F543338544B725235643749473942445F7A78627077
51.091127249165126,3.709510691706117,Gent,2025-06-24T05:38:55.3610000Z,564E2D4E57382D30747541514166726466374F672D51
54.39567823387339,24.03893889903027,Alytus,2025-06-24T05:36:14.1850000Z,347A7475456B7877493036657A393967395677346367
40.47674187114021,-3.6592668460619984,Madrid,2025-06-24T05:36:37.5420000Z,514C38304249504576487346764D4235413667363141
46.76921840614273,23.60947756000522,Cluj-Napoca,2025-06-24T05:36:57.0700000Z,71624F744A6A2D55595844337A5661784D30395F7641
42.140858698232,24.73681086355328,Plovdiv,2025-06-24T05:37:08.4580000Z,6E6D6C73777A73685170646E3061324A567A4B557377
38.42536328789833,27.136738762951083,İzmir,2025-06-24T05:37:20.9340000Z,484D6F50665778506A6551675A473474676653373651
41.372820684853814,2.176684794517366,Barcelona,2025-06-24T05:34:17.3290000Z,512D6A464D6234437A437848684951524838564A4441
55.414441581585976,10.396756456847124,Odense,2025-06-24T05:34:48.5220000Z,534E38424A72596A49326E574F48535852715F365851
55.78946766470893,49.124385596258776,Kazan,2025-06-24T05:35:02.0980000Z,74506B63567A4F33385671755F4C45615178446E4841
55.60709377426033,12.99732673962034,Malmö,2025-06-24T05:35:15.4880000Z,2D4F514154386273347641584476454D4E4C41674551
46.148827375042366,15.049639374425231,Trbovlje,2025-06-24T05:35:39.6640000Z,6E4B5F657A6D6F76664932484A42644F4D414B384141
56.823905875094304,24.598791442792137,Ogre,2025-06-24T05:32:48.9240000Z,4F354E69555A316E3748514F2D6B4E53384168743241
57.53814346687538,25.4235750520519,Valmiera,2025-06-24T05:33:06.7690000Z,61572D3557784D72684A31677A524B38723770694941
56.51737437214134,21.011398745808467,Liepāja,2025-06-24T05:33:17.6250000Z,6C79763761432D4A4B68742D476E5248684A4D7A5367
46.96612805189901,32.00316898156436,Mykolaiv,2025-06-24T05:33:28.5240000Z,437075336248645F6D423454525F5F36374563524441
47.193471590167256,18.403107260582345,Székesfehérvár,2025-06-24T05:34:00.7510000Z,5252457348666D484A33336C3867745472745F314A67
40.59232677544183,22.957249165595016,Thessaloniki,2025-06-24T05:31:29.5040000Z,6D7344555A7239447448365278555F6B377079463651
36.81218883203624,34.64130657922123,Mersin,2025-06-24T05:31:45.6710000Z,362D71624551445564434E79395147636B43302D7341
56.15652745854051,10.211412876592892,Aarhus,2025-06-24T05:32:10.2350000Z,417444416236756D485F75636A794E7245756B6E7477
65.68786059017957,-18.104907290871548,Akureyri,2025-06-24T05:32:29.7420000Z,48774176723738497877645F4E6C496A66766A624E67
52.37212063931285,4.900510237554356,Amsterdam,2025-06-24T05:32:36.9630000Z,6D6F56566E4B3233717062736A6F2D555A7133425941
45.47141337257139,9.196236510235012,Milano,2025-06-24T05:29:49.8030000Z,305F76484F78596956416E49644B7663324362595867
38.078902341578384,23.73778375548408,Acharnes,2025-06-24T05:30:05.3770000Z,73454B773446466F334B58305165304C444D616A4577
47.80383557131565,13.04082138556173,Salzburg,2025-06-24T05:30:33.1990000Z,35375F44436F376A3549735A54785970426763766A67
44.42879054527585,26.10135708863518,București,2025-06-24T05:30:51.3450000Z,4473716E536E64707A665A61616C4C70504C6E543541
43.75053397518359,15.896272491682812,Šibenik,2025-06-24T05:31:15.1860000Z,307241727A4A334D54364E49566D32636A6367657151
40.47674187114021,-3.6592668460619984,Madrid,2025-06-24T05:27:00.6980000Z,514C38304249504576487346764D4235413667363141
46.315635786498326,16.335992593765038,Varaždin,2025-06-24T05:27:38.7730000Z,564A78365041727158784A5A4D7A4266304C6F6D6367
49.22063561368659,18.742313379337272,Žilina,2025-06-24T05:28:07.7240000Z,453341345671455362514275714A6C43665255673351
59.35287399226049,26.36199755653322,Rakvere,2025-06-24T05:29:03.6690000Z,69745A414D6258397131666C4E367765426470657041
55.9331243766661,23.302651727550696,Šiauliai,2025-06-24T05:29:14.6810000Z,4B64786B4F5A673576414647507531326F3256567677
58.234733388081665,25.86291609595368,Mustla,2025-06-24T05:23:57.9540000Z,58325644516777576F3037376E6C4839547652674A67
48.21195099879555,15.635190813138273,Sankt Pölten,2025-06-24T05:24:10.7080000Z,754566796A324F715A4C31755F6D5872355474777841
46.25001106976389,14.346602975529052,Kranj,2025-06-24T05:24:48.1420000Z,42472D505A426353787331552D383446306F5A466167
55.744634138511664,37.60180515595065,Moskva,2025-06-24T05:26:11.8680000Z,555554634E454E657561354768694951336232476667
45.32908139754982,14.442782441923828,Rijeka,2025-06-24T05:26:28.0640000Z,49796F522D6431376847626C36535258757437497767
52.28032369957499,10.53643647786497,Braunschweig,2025-06-24T05:21:03.2170000Z,7545376452773735417961662D357871497446425A51
44.012912376196645,20.89569581231961,Kragujevac,2025-06-24T05:21:51.6460000Z,43745435556D3231535732444F572D4233346F495551
63.93771271276199,-21.0039339202989,Selfoss,2025-06-24T05:22:34.7940000Z,4D56676A6B39706A4A5F6658394B3141616F75707451
59.396633404291705,27.76018987177855,Sillamäe,2025-06-24T05:22:47.3200000Z,586F76686F7444666649775648785A64553131366277
44.842502827127326,-0.5912181597364052,Bordeaux,2025-06-24T05:23:19.6870000Z,4B5743344B337667565855586636306D5A744B676D67
49.34169360523589,17.20526424735973,Němčice nad Hanou,2025-12-14T19:45:34.851+00:00,6B637873506D394D5741792D67353151303565355A67
18.21632367147401,121.3752786955916,Pudtol,2025-12-14T19:46:35.873+00:00,4F755A34637A5836436F4B385F4A52775245455A3167
15.134087124673185,145.7087786889739,As Perdido,2025-12-14T19:47:59.388+00:00,78624F464D6759323372756242356F76673551497851
25.38879639186286,51.35124437950732,Umm Salal Muhammed,2025-12-14T19:50:41.149+00:00,5945312D70506C66416966306F4C37576A5852667A51
35.8043531582038,136.8808754688029,Gujo,2025-12-14T19:52:20.033+00:00,6F772D785042776C33757A302D3762457755555A5041
-22.95132822878252,-42.97821287252154,Maricá,2025-12-14T19:53:37.675+00:00,6E33466738516B384F65413349615F62655F50425067
53.01061655561978,5.916455036397943,Luinjeberd,2025-12-14T19:54:48.579+00:00,644145474E7367427252337666706577734564785F67
14.87851773707842,120.2327661524161,Subic,2025-12-14T19:56:09.46+00:00,4157686C636C73694A417942785A69655F6865776C67
56.033771266146886,92.87314777899762,Krasnoyarsk,2025-12-14T19:58:58.366+00:00,416D6C4E7A4F53506A44313433373646416749626841
16.06861285535465,120.0132949047995,Sual,2025-12-14T19:59:59.151+00:00,513854466C7A784D376F2D71545F4C414F4153307577
36.25517133179922,127.435946941889,Jinan-gun,2025-12-14T20:01:44.011+00:00,4B725A4C416A44624144596A5852317A5953314A4677
49.17734252285251,18.39496748693395,Udiča,2025-12-14T20:02:29.528+00:00,2D4F55442D7543526B71445130726347646243485651
46.053868838797875,13.913402465422628,Spodnja Idrija,2025-12-14T08:32:39.97+00:00,646A583659647655594133566476525238574A674D67
-22.72535734713919,-70.27877989946379,Michilla,2025-12-14T08:33:36.988+00:00,5F535F467766634B756971705A46326C517232326677
12.8161260218395,-12.31541064962239,Tonboronkoto,2025-12-14T08:34:32.379+00:00,4C59667854637736794D3142685635395F422D527477
-7.356501590047999,110.5190210676268,Salatiga City,2025-12-14T08:35:37.778+00:00,374248366B63694A694135727A665044573145447667
0.1884552239773007,40.29653786982175,Dadaab,2025-12-14T08:36:11.168+00:00,6E702D30794F475464466F4F49443670416679547451
18.80432632318,-89.3700572628792,Nueva Vida,2025-12-14T08:37:41.425+00:00,583155735156736A36433176366C50567A6330675167
5.752075437208956,102.432798360031,Pasir Puteh,2025-12-14T08:39:03.401+00:00,657962725073335A78624C43506C35436371694F2D77
-31.660784330078386,116.6622785211116,Northam,2025-12-14T08:39:52.544+00:00,4A5F797354687956356B466E464B6C6234706F377067
54.8487658726554,80.2440394242095,Ust'-Sumy,2025-12-14T08:24:44.046+00:00,68483058457A744C306A47752D7949574B6F71695451
2.876569996383726,101.8805225787869,Beranang,2025-12-14T08:25:39.675+00:00,6E58545F7967727431656537597076484B6870543267
-2.954359666781682,119.1742924187153,Mamasa Regency,2025-12-14T08:26:22.389+00:00,634F356E696E68794273436466346E796B436D333277
26.56123886247106,89.53274266703698,Buxa Forest,2025-12-14T08:27:12.491+00:00,6F53756A554C4C534669335474432D3976454C795967
2.968516052123549,99.80380654809689,Tanjung Balai,2025-12-14T08:27:44.576+00:00,715746794654495952303855486349463044516F7A41
6.456555518630085,100.3558973348028,Arau,2025-12-14T08:19:46.956+00:00,6D4F53557A6B2D3873626A52454C5A65445A4E323151
45.3855031121209,-71.93280130785095,Sherbrooke,2025-12-14T08:20:23.946+00:00,75776F7376476F4F6163644C544B34787039566B6677
61.17742390187532,24.62213205964096,Hämeenlinna,2025-12-14T08:21:28.177+00:00,5F5576364B6154327631304552556952707363615341
-4.061063943598517,103.6583504821778,Muara Enim Regency,2025-12-14T08:22:07.959+00:00,64426745566771467A314A6947545272634C4B413267
7.885807540190171,4.297547075006959,Ejigbo,2025-12-14T08:23:40.529+00:00,6D5F6A7536797A326B434B674E793563517778594E67
21.8834383019042,-102.2936378085282,Aguascalientes,2025-12-14T04:37:19.027+00:00,4A5A65425932436B59376371744B4E774D504F335A41
4.967917935456517,118.2072046113409,Lahad Datu,2025-12-14T04:38:52.988+00:00,4565414663786F45584F7A7649486767324438627351
42.69869278552663,23.35205581551729,Sofia,2025-12-14T04:39:25.93+00:00,707A694C4F3454696459354D4B776955584465777977
39.185646241087504,-9.339611231588616,Maceira,2025-12-14T04:40:18.359+00:00,685954467938706569535F5F582D48716A367A637567
40.4326250091555,22.600502514758254,Central Macedonia,2025-12-14T04:41:15.811+00:00,4B38634F4D4F304933784C52537A6759786E34626967
40.51611162978865,-2.881260480046715,Fuentelencina,2025-12-14T04:42:05.845+00:00,61364F6D2D444661536C673067412D3775775A4E6577
-0.5476119029912089,37.38874253188995,Mururi,2025-12-14T04:42:58.112+00:00,55704752483349495854587333745455623351523677
66.23735386778715,-15.80669291210692,Langanesbyggð,2025-12-14T03:40:52.937+00:00,6D39364F596D317331342D4D536A72596E7674563367
-23.831326062911177,17.383912186283663,Tsumis,2025-12-14T03:41:46.784+00:00,425275554E733050664A51374972596A33554E4C6677
47.06842118753532,-76.5302004339032,Le Domaine,2025-12-14T03:42:41.405+00:00,3144762D422D527A355942734936435A4E6157324B67
16.524457511343222,101.1465084033605,Na Ngua,2025-12-14T03:44:34.485+00:00,386B2D4835576532634B6D496C4661714962495F6841
43.7011378665902,-98.0298907069625,Mitchell,2025-12-14T03:45:47.921+00:00,42434E59396F7961416661523963634B6A3553395777
57.22511802210936,-5.66489190536716,Kylerhea,2025-12-14T03:26:47.098+00:00,3948377248773574304362584C394B55454830444341
43.95685622174207,12.43844986052146,Ventoso,2025-12-14T03:28:44.337+00:00,344447416D4E303054496F4136384162513471483441
-21.25485458129097,-48.32004472878655,Jaboticabal,2025-12-14T03:31:34.711+00:00,6E584531355A2D645566477142423452426144587167
7.877934305988113,-80.75236702516116,Ocú,2025-12-14T03:33:18.16+00:00,77373376636445324F67497465447941635A666A5077
47.26822602289981,18.21876306185235,Isztimér,2025-12-14T03:34:37.114+00:00,41747A2D7565454479686733335A5544733866774C77
41.69607646877202,-85.9432266804691,Elkhart,2025-12-14T03:21:41.16+00:00,44526E6978516E66485F7945454C63626F4D51505251
-22.714926785109032,-42.62553613705466,Rio Bonito,2025-12-14T03:22:21.521+00:00,4A38636D6B3378505A506866494D796F3877505F3467
-26.77800144433654,-54.91767905399794,Garuhapé,2025-12-14T03:24:07.148+00:00,5A66675A6735317459325262766C4F30597279307A77
-0.8818229054723317,36.79243517499155,Gachege,2025-12-14T03:25:31.317+00:00,4D674C58506176342D6D433742676C316E394D674251
59.05457125723046,9.134643201751288,Drangedal,2025-12-14T03:16:00.287+00:00,6C6679454A764E49316E513378304E5A5062346F3751
6.507998195955865,3.098640389154304,Auaba,2025-12-14T03:16:50.94+00:00,436C776E544436766970485F4E4B4756557976676B67
68.62619758528527,15.773480564769873,Gullesfjord,2025-12-14T03:18:26.51+00:00,31756D2D515A416A58476C61426E6E476D74544A7441
-18.73750224022912,17.99874353208998,Tsintsabis,2025-12-14T03:19:18.132+00:00,467662744F785A37555957614E516B6346544E6E7351
47.11166800277496,2.202560345568916,Mehun-sur-Yèvre,2025-07-06T22:30:11.258+00:00,55634E6A31393231443473424D7951443663345A5551
12.66946735788959,104.8518596721194,Krong Stueng Saen,2025-07-06T22:32:23.207+00:00,4953484F446E6458355261704A4259354769724F7167
-34.28198595468552,117.7121240865681,Cranbrook,2025-07-06T22:33:22.915+00:00,4541633041347245712D77554B423059334842664D51
56.95921533310485,23.12546292546536,Tukums,2025-07-06T00:18:02.38+00:00,31383250434C723971615A627044386E457035455667
15.53841425515918,104.9750972383111,Tambon Kham Pia,2025-07-06T00:18:44.401+00:00,6F4D51665562385A7476773733506A36504B50454577
48.64530773073478,22.26964575102263,Uzhhorod,2025-07-06T00:19:23.295+00:00,6F4767554B374E6248616653387962694A3951754C77
6.280576030616855,100.7150580226775,Kuala Nerang,2025-07-06T00:20:13.12+00:00,697133352D5A4E3063397069446F705F374C57505A77
46.23810296703115,7.365735912869873,Sion,2025-07-06T00:20:54.377+00:00,335349376948464342732D7146537A353178425A4167
41.5201483772891,19.88613388520976,Cudhi-Kant,2025-07-06T00:21:50.32+00:00,41515F78796D4C665A71376C304D4F6331436C7A6E67
-9.043246615064554,124.8384061545311,Belu Regency,2025-07-06T00:22:30.121+00:00,5A505A696743583230576373647A546C7A6F6A5A6251
51.35288418682856,-1.995868447916903,Devizes,2025-07-06T00:23:35.91+00:00,5264746852706834566B416E755A3732507039783577
6.200044361719227,6.697031421257145,Asaba,2025-07-06T00:25:12.397+00:00,6C7136775A44715033517A66534272493475476C5851
58.88663850800123,25.56770873417543,Paide,2025-07-06T00:26:13.693+00:00,4870585F30736F74546B3162325F52617648475A6F41
-9.180096338231966,-78.34041772899751,Cerro Blanco,2025-07-06T00:06:50.507+00:00,47626543555674514C6F70566D6B456D7053466D3441
47.989904588204496,12.308429791675929,Amerang,2025-07-06T00:08:09.709+00:00,747A574D50677861416B6E465742624361486E4A4677
49.20282732555135,-111.3061406891152,Aden,2025-07-06T00:09:04.697+00:00,4E627250476D4D36656D72755834527252596F483477
36.15978494196909,-5.344942929682739,La Línea de la Concepción,2025-07-06T00:10:22.582+00:00,7858416F5842355074416E66436A53485F734E6D4677
-1.03452371429661,37.07524820701828,Thika,2025-07-06T00:11:13.444+00:00,595454522D4678332D37444278733376797A5F395677
7.671698777676793,124.9973819382643,Don Carlos,2025-07-06T00:12:23.932+00:00,456143454A6A64536E695F5F595F6D70787830714551
-31.40756253433173,26.55485973535149,Alva,2025-07-06T00:13:55.614+00:00,7064515542685332424739366A56336B2D6668686341
-7.267564164626873,109.3108342482079,Kabupaten Purbalingga,2025-07-06T00:15:17.96+00:00,6A70724635685539482D707A7658444C686F53454977
44.05938308559885,5.786725788311037,Saint-Étienne-les-Orgues,2025-07-06T00:01:45.426+00:00,49505F79755075724C4957544A4B5A395A6531333251
58.80672887743336,17.43719475547508,Västerljung,2025-07-06T00:03:14.126+00:00,4B703447464361785872375759794A646F79564C4541
-21.59261507863772,-43.45721793649049,Juiz de Fora,2025-07-06T00:04:16.317+00:00,7977684E31524E4E424F7A4235666D5A6A4B32717777
-45.82655754112852,168.3915033448404,Caroline,2025-07-04T04:49:31.416+00:00,48796936562D6F5A682D7771525450506164416E6C51
44.09116659549221,6.237723364773604,Digne-les-Bains,2025-07-04T04:51:03.875+00:00,4D4E4864734F734163633156726A6D426E6159727877
46.35350964225442,16.81255637478077,Kotoriba,2025-07-04T04:52:09.211+00:00,79657441594B6C4A515062645954637466436A376867
17.01275924764511,104.1264184999156,Tambon Dong Mafai,2025-07-04T04:53:07.019+00:00,4B6262395F3379484B7068576A5931733767446F5A67
51.69801437719939,17.42957761950422,Krotoszyn,2025-07-04T04:53:53.576+00:00,32446744754249585442446A334C5535707134504467
52.15361561158267,5.384302975316545,Amersfoort,2025-07-04T04:54:43.704+00:00,304E52544C715A415955722D357A7A43586B6A6E3041
63.86214321756408,25.5739853461199,Kuusisaari,2025-07-04T04:55:45.123+00:00,32444F6F4F4B6565593042424B76374C337462517477
25.39099181687862,-108.0300130782397,Álamo de los Montoya,2025-07-04T04:56:33.193+00:00,34486E6A757873624F793361646D7075726E30783967
-25.16582437084697,-65.73426305204163,Escoipe,2025-07-04T04:39:16.713+00:00,575769364645342D75494543566F454A614A334A6841
53.23792462633921,22.80944976366286,Morusy,2025-07-04T04:39:48.956+00:00,664F425F52775F7347346A3948744E574768674C7341
48.23846609076639,-2.558598386397883,Le Mené,2025-07-04T04:40:19.081+00:00,45304D676477446E4C6E377069333351724875424967
47.29318125649679,-1.208603693824273,Orée d'Anjou,2025-07-04T04:40:56.918+00:00,6561592D4D6A6F777851495268743349783643747941
34.67676986895154,135.2063573696825,Kobe,2025-07-04T04:41:36.925+00:00,42366C7765786852357358724343423265436A697567
58.55483648349571,25.56086310549257,Olustvere,2025-07-04T04:42:07.143+00:00,79786578714433795767745844476541755279397A77
-1.150174537472285,36.839241143365,Kiambu,2025-07-04T04:42:41.845+00:00,5043614C4C35366D742D6533466E6777733761694851
-3.110696365794277,-60.01437989215808,Manaus,2025-07-04T04:43:03.895+00:00,7153415375634C576D314E36386F7670436A47434F51
49.60557668297233,6.264852544252099,Schuttrange,2025-07-04T04:43:41.258+00:00,5966316F43365F3277434A424B704F71545663632D51
4.795899357702272,-73.94945600422294,Santa Isabel,2025-07-04T04:44:19.707+00:00,5563627367796B6E7950327470476159334664696941
-34.24717473405722,116.1449881309583,Manjimup,2025-07-04T04:36:36.722+00:00,4A42634A546E37726F496F34556A3841684453325377
51.45879561210509,-106.9168417903582,Broderick,2025-07-04T04:37:46.881+00:00,44327454384332414C2D2D4976626D4A723162506841
6.022872352554408,-75.16671812953591,Cocorná,2025-07-04T04:33:32.287+00:00,4145744D685763534B73447050374F652D6A374F4367
9.415405832949618,122.6384232736864,Basay,2025-07-04T04:34:01.903+00:00,2D524E745A45767334363566787879414D3043566967
-6.61532832975327,-76.67879275943865,San José de Sisa,2025-07-04T04:34:48.642+00:00,71366F4F4649784A4A6B4C73474A51726E7365436267
5.139880488231688,100.7431601876655,Batu Kurau,2025-07-04T04:35:17.847+00:00,6A6A6E655246354371386F4A4676574F746933484A41
-31.56948064040328,-55.47264175602616,Minas de Corrales,2025-07-04T04:35:38.744+00:00,344870414F5F45392D375238636C33675A396C626877
-29.90097570802367,-71.24969326485515,La Serena,2025-06-29T21:17:44.525+00:00,4C69574B796A484E6F346D42635F4F496F3870397867
-6.029458937731225,-37.01906806767337,Jucurutu,2025-06-29T21:18:34.661+00:00,57685739684F66583032584731477263416B6F4D4E67
43.4620055333376,-96.83881471531022,Tea,2025-06-29T21:20:12.179+00:00,6E7859704A724C6E586635494C58662D6A656F634F67
43.68702761985119,40.21931184423091,сочи,2025-06-29T21:21:52.007+00:00,6456725964352D327337587A582D464C435662653341
31.23382736508366,-99.85473720464287,Eden,2025-06-29T21:23:24.322+00:00,6D4D476F373044463447765853346E47737075774A77
31.32263325408183,120.6278879386861,Su Zhou Shi,2025-06-29T19:33:34.68+00:00,454C5936424676662D2D7A354C3753672D7A7A436151
58.83631957613536,13.980509483228484,Sjötorp,2025-06-29T19:34:18.557+00:00,416F4C795377702D5273304B7856634E546866534D77
33.86117674436205,10.08541880081483,Cité El Amal,2025-06-29T19:34:57.695+00:00,306A62666F5F766449656847345F67754D7469454351
41.32390756450648,-117.705550759152,Winnemucca,2025-06-29T19:35:36.924+00:00,564B4C6E664241702D4774736D463635586D79416E77
-17.51773315673033,-49.45647931646678,Pontalina,2025-06-29T19:36:35.174+00:00,39796162736C316C32307A72665F7864464954435567
-31.55867490163259,118.6148378699924,Koonadgin,2025-06-29T06:56:25.567+00:00,3638433174472D53304B324C68556D6F3441325A7377
-33.84115871129054,18.95762100335358,Simondium,2025-06-29T06:58:48.654+00:00,6555714C3861484949473038555F43515632576D7167
51.73955311102966,102.8743171290139,Zun-Murino,2025-06-29T07:00:35.003+00:00,3459744C437545502D3550724F523678615A37793051
-3.893956930942063,39.50128626623074,Mariakani,2025-06-29T07:01:17.388+00:00,4431633779364B445061594A646362484B596D714A77
6.781276200861772,126.2371043731186,City of Mati,2025-06-29T07:03:08.21+00:00,4D6467767233454A715465506235446172426D704151
66.58848673304836,32.74473756012215,Poyakonda,2025-06-29T06:44:26.861+00:00,794C754E42623163383931545441797A364B41333151
42.52334465477552,19.09472373390922,Sladojevo Kopito,2025-06-29T06:47:01.117+00:00,536B4F6E78586356766F4E41573674495232775F6841
-17.57175841449861,-65.76612056273923,Arani,2025-06-29T06:47:53.159+00:00,63724D4278767454487059416D476452573353792D77
2.344102106964524,111.8207904868294,Sibu,2025-06-29T06:48:48.081+00:00,587A4C42434345766879716F66594F30387357774251
-31.46741693114614,148.516538360569,Armatree,2025-06-29T06:50:04.592+00:00,4E786337636148376348646C77637A57744C45797451
37.08044217558302,28.361707123946314,Ula,2025-06-29T06:52:06.149+00:00,7776693949364A5159596379455536695843334D3577
-41.86668175879353,-73.82541531738207,Ancud,2025-06-29T06:53:34.238+00:00,596B426F3761416563417A6E45444E636A5F56624867
54.96067930786774,38.44448896240189,Donoshovo,2025-06-29T06:54:36.851+00:00,626A7671514A314877306E363577486F735A432D5977
16.708297560566304,81.09694189250236,Eluru,2025-06-29T06:32:38.304+00:00,532D43662D31366D4A594D5A75745230617773576A51
45.92586462233923,48.15190141375525,Zaton,2025-06-29T06:33:28.742+00:00,6263345A2D5931565F33355142556E50745A396C4F41
42.88807151546825,26.44852110402412,Kotel,2025-06-29T06:35:04.484+00:00,48634E4D4B48787637704D78335A546233336A664441
-21.59222148322988,-49.91254368542151,Promissão,2025-06-29T06:35:46.49+00:00,4932656D776342456E757A5738572D315F5768635567
-20.45813228287988,-53.72032255659113,Ribas do Rio Pardo,2025-06-29T06:37:13.7+00:00,3339723755726F49316B4D6759356B6B555A776A7741
49.0069239132331,-123.03684474881088,Delta,2025-06-29T06:38:10.375+00:00,436F54475A36793030784169324161756772624C5A51
46.99168216357751,6.928882844851779,Neuchâtel,2025-06-29T05:12:39.416+00:00,38504C773665786B2D5A326354544B67573675736267
42.05731160550162,24.31026840242826,Peshtera,2025-06-29T05:13:43.758+00:00,442D3735625554726E706D77497A4F4E643238535077
-25.63089052381265,26.97180389398285,Moedwil,2025-06-29T05:15:12.384+00:00,626436773155684166394D655555726A4F584E614377
23.34294277477014,89.33280292975145,Shimakhali,2025-06-29T05:16:03.41+00:00,764B72654D487A6F4C3366575F55765F4364515F4551
61.13312384400603,12.50449485697167,Plassen,2025-06-29T05:16:54.8+00:00,334536696D4A6673357A3346377A58314E5643594F41
-16.423784240980346,-73.14676012979368,Ocoña,2025-06-29T05:17:54.064+00:00,473244335573747044725350514E666C7A5A37466377
40.46476419893141,9.090241987894187,Province of Sassari,2025-06-29T05:18:34.781+00:00,3565676C4B5474384150414674746A7377734D756A41
49.06744104510333,22.39770493657063,Runina,2025-06-29T05:21:28.435+00:00,383477544A764E705144723836424C4E684A57417651
56.07415964320157,-6.182250060934839,Isle of Colonsay,2025-06-29T05:22:56.917+00:00,6164534F5738676E2D4A356C7A487342554D644B6167
55.64124084066539,8.94088810166552,Hejnsvig,2025-06-29T05:01:49.869+00:00,307167397959554D303775624D73314A642D6F513151
52.76515992246443,-1.196540843948542,Loughborough,2025-06-29T05:02:53.119+00:00,75366B74614E50476C58794951736A774F6D6C433941
-7.38189022780744,112.3075140808679,Kabupaten Jombang,2025-06-29T05:05:18.429+00:00,5473374539564B4F4C583150546D48565A31725A5751
48.00035992261851,23.67611387047949,Bedevlia,2025-06-29T05:06:34.243+00:00,34566166324B45484469455365396A5A394431624141
42.79346037968974,26.54239191165371,Gradets,2025-06-29T05:07:42.096+00:00,7064636D356B6248784B483554354A6F57316A794351
55.17361585857219,8.556610690153041,Rømø,2025-06-29T05:09:12.138+00:00,3244505835787A654E31376C426C543258494F496B51
-34.56450978831383,-61.13510259762706,Las Parvas,2025-06-29T05:09:48.034+00:00,706452746A5644477866763648387534464C39775067
58.82095223946298,6.785664077851404,Tonstad,2025-06-29T04:48:02.68+00:00,4F544E2D6474416562384A464F5968445A7479577A77
3.612324044511047,-76.30950422125544,Palmira,2025-06-29T04:50:37.5+00:00,6333777353597159455A5A786F72665469625F396C67
41.93157097714779,-8.628299143272088,Cossourado,2025-06-29T04:52:20.888+00:00,75774756443152624962686568756A42386B6C6D4941
59.22935292142675,10.92147186204821,Fredrikstad,2025-06-29T04:55:21.773+00:00,336772343561586A736D564730326145693848485541
21.93681539344298,120.7159263982218,Hengchun Township,2025-06-29T04:56:40.382+00:00,75776A7842745736473553506F49444955334F484E41
6.355001639941164,5.584963367634908,Benin City,2025-06-29T04:57:45.126+00:00,377738593277336741495F78306B5A5953674B507451
0.6495109518850957,124.20070124824268,Bolaang Mongondow Regency,2025-06-29T04:59:23.112+00:00,35355F7A344F7163544C764B4D72596B703134764451
-25.57873181161162,26.08293249589745,Zeerust,2025-06-29T05:00:16.958+00:00,365750486D5136393351364C5330436C4932735F5077
7.729558116434011,100.1078832086861,Phanang Tung,2025-06-29T04:39:26.578+00:00,6579305238314B7872377778666A45657A36485F3651
53.67101459231432,12.265957346009229,Krakow am See,2025-06-29T04:40:16.541+00:00,3764453047363063544A4E47703549706B6941596C41
43.10640281264371,0.1478962707301754,Ordizan,2025-06-29T04:41:04.573+00:00,4B7570596A376773335A443069644430796269765651
-4.025556730739893,119.6581010644358,Parepare,2025-06-29T04:42:09.565+00:00,587665536158764A723434624E536954305471706A51
57.18685137229644,-7.395928267305533,Askernish,2025-06-29T04:42:57.023+00:00,7A656176364836784F4969716E6E55737A4E63644467
33.19557235824892,130.0222532983973,Takeo,2025-06-29T04:44:34.463+00:00,4A6C4769466C31346F3655745F6A353346414F465777
57.06743843357147,-4.119427777048618,Newtonmore,2025-06-29T04:46:11.278+00:00,5F366C71333648707049367233746A7964706F644277
-2.428031833693767,101.1664722480273,Mukomuko Regency,2025-06-22T23:42:48.955+00:00,49484A75774E52354F42585268485F42315171516B67
60.474075130760845,25.376799257021055,Pornainen,2025-06-22T23:43:34.698+00:00,5A7437666348653349366F58794A7049544A2D726177
22.2860910312503,114.2731939923346,Hong Kong,2025-06-22T23:44:24.767+00:00,7A4679444446632D317035735174324744546A6F3167
49.04972844536934,7.426309168494243,Bitche,2025-06-22T23:45:02.303+00:00,4253484A3251385A706C615F384D476530764E6B5051
-4.691320703473091,-41.43192360281714,Milton Brandão,2025-06-22T23:46:35.224+00:00,5579576B3757364D5F476375475635674A5861794251
52.80761519904375,9.147674843360118,Hoya,2025-06-22T23:47:36.861+00:00,5F754D5A304E497A4342684B70482D4249594C687541
35.92613639455394,-85.46525970214078,Sparta,2025-06-22T23:48:14.408+00:00,3251473867694A677548594864706130356B31555341
50.21798452136539,5.73821437137519,Houffalize,2025-06-22T23:33:23.737+00:00,52726F3549464B774B43646A36685F39724C484B7741
-34.5499082559681,137.823589525325,Sandilands,2025-06-22T23:34:41.971+00:00,414473686C2D31644233682D447753446F6E62654767
43.94405712911377,24.15186169966067,Amărăștii de Jos,2025-06-22T23:38:28.907+00:00,6E46537933485F545744583873637A6C477151646367
22.824617510931496,86.62895924029972,Kuilapal,2025-06-22T23:27:55.282+00:00,644A38496A526836784B633938796F64366C6E5A6651
31.52198107631099,130.5298692322387,Kagoshima,2025-06-22T23:28:42.975+00:00,654F42676B30643074774453357568695A3849515877
21.71777966382293,-102.2973334340223,Buenavista de Peñuelas,2025-06-22T23:29:17.75+00:00,73524170314F4D462D63463865323274745335415951
45.16652937938586,14.60535634124335,Čižići,2025-06-22T23:30:36.252+00:00,564C367251724D6252567854555351737A6851357641
54.11796121298417,-7.591785330178025,Ardratha,2025-06-22T23:25:31.977+00:00,557A756C76674D6B5F5237585547376E564D43545851
5.790420913407103,-75.42661512025057,Abejorral,2025-06-22T23:26:11.682+00:00,585856323975486B4373653475765357706264335777
58.85707557276014,15.40772016139776,Hjortkvarn,2025-06-22T23:26:47.07+00:00,374F4E79644D5855524742785152582D5F52725A7551
29.64904929999544,34.99023833063197,Eilat,2025-06-22T05:44:07.066+00:00,2D696D786D6A5A52585A3475384F7664365347756977
16.14090900046629,-16.40977602702885,Mbéraye,2025-06-22T05:44:45.414+00:00,756D376D6E46356C45315541745775596A5457656C67
45.66887660379162,15.10474138094663,Semič,2025-06-22T05:45:55.06+00:00,4A536B33626B477778557A666356707A6B4F31423741
47.54124420781299,-54.87725676694195,Terrenceville,2025-06-22T05:46:51.508+00:00,4F5F735F635A46483364633361484F48544469625967
43.70904860584069,26.83222446172155,Isperih,2025-06-22T05:48:10.296+00:00,54615437514B5F794B343358367061536B78315F3977
35.22036625352329,-79.72934582458275,Candor,2025-06-22T05:48:50.944+00:00,76446F794871364C6E5958785034676D5F3753316E41
45.01160404504024,28.22053010065007,Traian,2025-06-21T05:00:45.241+00:00,747374435135747346364A4963594D697757717A7051
52.27893247215366,-3.680884410355861,Rhayader,2025-06-21T05:02:16.419+00:00,477968536878646F5A61545F5A7373386C78782D4377
-4.081773648865324,122.643571372612,South Konawe Regency,2025-06-21T05:03:23.198+00:00,414A31493147726D446344694C46417A57324D4A4A51
-2.641287705495746,121.3687881151617,Kabupaten Luwu Timur,2025-06-21T05:05:41.646+00:00,754A6A674D31686D46434C6B36373254665F33713851
-47.56028217683147,-67.28433060425084,Estancia La Calandria,2025-06-21T05:06:52.816+00:00,494174555773716B5653576A5F776E774A7A66503651
-0.5677335523601329,34.93554821576161,Nyamira,2025-06-21T05:08:16.857+00:00,587858526866454F4E6368716766566A345274397267
48.76559350989429,98.26800187958509,Tosontsengel,2025-12-27T23:33:21.5130000Z,467A496251422D615661656F6F494E6C365978743041
47.46813790133332,101.46650425302141,Tsetserleg,2025-12-27T23:33:33.3760000Z,7351575A46796D4B4447695531746E304A586B4F7267
47.72345293844662,96.86431140774592,Uliastai,2025-12-27T23:33:41.4580000Z,363371316D734345614F7A37732D7066517A46345367
47.911066406166874,106.83225442195857,Ulaanbaatar,2025-12-27T23:33:50.2000000Z,786B78645044447541566E4636555859735A6A746B67
48.074545514606044,114.53131123273945,Choibalsan,2025-12-27T23:33:59.6420000Z,6942444F3857316D4244363938737A67363856675F67
